{
"type": "FeatureCollection",
"name": "ccpp_wiki_alt",
"crs": { "type": "name", "properties": { "name": "urn:ogc:def:crs:OGC:1.3:CRS84" } },
"features": [
{ "type": "Feature", "properties": { "fid": 3, "osm_id": "4704165833", "name": "Marias", "place": "village", "dem_huanuc": 3484.0 }, "geometry": { "type": "Point", "coordinates": [ -76.7065611, -9.6072043 ] } },
{ "type": "Feature", "properties": { "fid": 4, "osm_id": "4704079082", "name": "Sillapata", "place": "village", "dem_huanuc": 3445.0 }, "geometry": { "type": "Point", "coordinates": [ -76.7747338, -9.7568791 ] } },
{ "type": "Feature", "properties": { "fid": 5, "osm_id": "4704079078", "name": "Shunqui", "place": "village", "dem_huanuc": 3535.0 }, "geometry": { "type": "Point", "coordinates": [ -76.7833329, -9.7311947 ] } },
{ "type": "Feature", "properties": { "fid": 7, "osm_id": "3903497451", "name": "Canchabamba", "place": "village", "dem_huanuc": 3195.0 }, "geometry": { "type": "Point", "coordinates": [ -77.1233897, -8.8848281 ] } },
{ "type": "Feature", "properties": { "fid": 8, "osm_id": "3903497448", "name": "Pinra", "place": "village", "dem_huanuc": 2871.0 }, "geometry": { "type": "Point", "coordinates": [ -77.0153552, -8.9248412 ] } },
{ "type": "Feature", "properties": { "fid": 11, "osm_id": "4399591784", "name": "San Buenaventura", "place": "village", "dem_huanuc": 3202.0 }, "geometry": { "type": "Point", "coordinates": [ -77.1859476, -8.7676146 ] } },
{ "type": "Feature", "properties": { "fid": 12, "osm_id": "3903431480", "name": "Singa", "place": "village", "dem_huanuc": 3620.0 }, "geometry": { "type": "Point", "coordinates": [ -76.8126267, -9.3885999 ] } },
{ "type": "Feature", "properties": { "fid": 16, "osm_id": "3903473532", "name": "Cochabamba", "place": "village", "dem_huanuc": 3278.0 }, "geometry": { "type": "Point", "coordinates": [ -76.8366288, -9.0950192 ] } },
{ "type": "Feature", "properties": { "fid": 17, "osm_id": "3903464617", "name": "Arancay", "place": "village", "dem_huanuc": 3049.0 }, "geometry": { "type": "Point", "coordinates": [ -76.7513311, -9.1720821 ] } },
{ "type": "Feature", "properties": { "fid": 18, "osm_id": "3903459411", "name": "Jircan", "place": "village", "dem_huanuc": 3202.0 }, "geometry": { "type": "Point", "coordinates": [ -76.7191947, -9.2467919 ] } },
{ "type": "Feature", "properties": { "fid": 19, "osm_id": "3903448545", "name": "Tantamayo", "place": "village", "dem_huanuc": 3509.0 }, "geometry": { "type": "Point", "coordinates": [ -76.7200432, -9.3924337 ] } },
{ "type": "Feature", "properties": { "fid": 29, "osm_id": "2832933815", "name": "Chupan", "place": "village", "dem_huanuc": 3418.0 }, "geometry": { "type": "Point", "coordinates": [ -76.6482393, -9.7478304 ] } },
{ "type": "Feature", "properties": { "fid": 30, "osm_id": "2784102922", "name": "Pachas", "place": "village", "dem_huanuc": 3450.0 }, "geometry": { "type": "Point", "coordinates": [ -76.771447, -9.7069274 ] } },
{ "type": "Feature", "properties": { "fid": 32, "osm_id": "2900151001", "name": "Monzón", "place": "town", "dem_huanuc": 962.0 }, "geometry": { "type": "Point", "coordinates": [ -76.3963652, -9.279636 ] } },
{ "type": "Feature", "properties": { "fid": 36, "osm_id": "2453405279", "name": "Paucarbamba", "place": "town", "dem_huanuc": 1921.0 }, "geometry": { "type": "Point", "coordinates": [ -76.242694, -9.9448851 ] } },
{ "type": "Feature", "properties": { "fid": 37, "osm_id": "2404296407", "name": "Queropalca", "place": "village", "dem_huanuc": 3824.0 }, "geometry": { "type": "Point", "coordinates": [ -76.8045846, -10.1816645 ] } },
{ "type": "Feature", "properties": { "fid": 38, "osm_id": "2333440133", "name": "Tomayquichua", "place": "village", "dem_huanuc": 2028.0 }, "geometry": { "type": "Point", "coordinates": [ -76.2128696, -10.0776746 ] } },
{ "type": "Feature", "properties": { "fid": 39, "osm_id": "2333349565", "name": "Ambo", "place": "town", "dem_huanuc": 2066.0 }, "geometry": { "type": "Point", "coordinates": [ -76.2042789, -10.1292012 ] } },
{ "type": "Feature", "properties": { "fid": 40, "osm_id": "2471934888", "name": "Chavinillo", "place": "town", "dem_huanuc": 3458.0 }, "geometry": { "type": "Point", "coordinates": [ -76.608363, -9.8587298 ] } },
{ "type": "Feature", "properties": { "fid": 41, "osm_id": "2471826308", "name": "Choras", "place": "village", "dem_huanuc": 3533.0 }, "geometry": { "type": "Point", "coordinates": [ -76.6059037, -9.910101 ] } },
{ "type": "Feature", "properties": { "fid": 42, "osm_id": "2471017728", "name": "Huarín", "place": "village", "dem_huanuc": 3437.0 }, "geometry": { "type": "Point", "coordinates": [ -76.676995, -9.9760632 ] } },
{ "type": "Feature", "properties": { "fid": 43, "osm_id": "2471002628", "name": "Rondos", "place": "village", "dem_huanuc": 3568.0 }, "geometry": { "type": "Point", "coordinates": [ -76.6890145, -9.9840194 ] } },
{ "type": "Feature", "properties": { "fid": 44, "osm_id": "1687453186", "name": "Yarumayo", "place": "village", "dem_huanuc": 3027.0 }, "geometry": { "type": "Point", "coordinates": [ -76.468443, -10.0044402 ] } },
{ "type": "Feature", "properties": { "fid": 45, "osm_id": "1687453181", "name": "Baños", "place": "village", "dem_huanuc": 3416.0 }, "geometry": { "type": "Point", "coordinates": [ -76.7358351, -10.0760293 ] } },
{ "type": "Feature", "properties": { "fid": 46, "osm_id": "1237320336", "name": "Yarowilca", "place": "region", "dem_huanuc": 4137.0 }, "geometry": { "type": "Point", "coordinates": [ -76.5901479, -9.7926717 ] } },
{ "type": "Feature", "properties": { "fid": 47, "osm_id": "1237320373", "name": "Puerto Inca", "place": "region", "dem_huanuc": 246.0 }, "geometry": { "type": "Point", "coordinates": [ -75.143911, -9.3965671 ] } },
{ "type": "Feature", "properties": { "fid": 49, "osm_id": "3067469215", "name": "Jivia", "place": "village", "dem_huanuc": 3368.0 }, "geometry": { "type": "Point", "coordinates": [ -76.6805659, -10.0238918 ] } },
{ "type": "Feature", "properties": { "fid": 51, "osm_id": "3122889395", "name": "Las Palmas", "place": "hamlet", "dem_huanuc": 717.0 }, "geometry": { "type": "Point", "coordinates": [ -75.9720428, -9.4426532 ] } },
{ "type": "Feature", "properties": { "fid": 52, "osm_id": "3115750631", "name": "Naranjillo", "place": "hamlet", "dem_huanuc": 631.0 }, "geometry": { "type": "Point", "coordinates": [ -75.9936795, -9.2495438 ] } },
{ "type": "Feature", "properties": { "fid": 53, "osm_id": "3115750440", "name": "Pueblo Nuevo", "place": "hamlet", "dem_huanuc": 595.0 }, "geometry": { "type": "Point", "coordinates": [ -76.062512, -9.0792135 ] } },
{ "type": "Feature", "properties": { "fid": 54, "osm_id": "3115749668", "name": "Pucayacu", "place": "hamlet", "dem_huanuc": 555.0 }, "geometry": { "type": "Point", "coordinates": [ -76.1209552, -8.7490287 ] } },
{ "type": "Feature", "properties": { "fid": 55, "osm_id": "3005888899", "name": "Pumahuasi", "place": "town", "dem_huanuc": 675.0 }, "geometry": { "type": "Point", "coordinates": [ -75.9548688, -9.1893675 ] } },
{ "type": "Feature", "properties": { "fid": 57, "osm_id": "2980402061", "name": "Huacaybamba", "place": "town", "dem_huanuc": 3175.0 }, "geometry": { "type": "Point", "coordinates": [ -76.9526356, -9.0378827 ] } },
{ "type": "Feature", "properties": { "fid": 62, "osm_id": "1230775000", "name": "Huánuco", "place": "state", "dem_huanuc": 2097.0 }, "geometry": { "type": "Point", "coordinates": [ -75.833333, -9.5 ] } },
{ "type": "Feature", "properties": { "fid": 67, "osm_id": "698527266", "name": "Puerto Inca", "place": "town", "dem_huanuc": 209.0 }, "geometry": { "type": "Point", "coordinates": [ -74.9659002, -9.3793365 ] } },
{ "type": "Feature", "properties": { "fid": 68, "osm_id": "698521838", "name": "Tournavista", "place": "village", "dem_huanuc": 191.0 }, "geometry": { "type": "Point", "coordinates": [ -74.7051197, -8.9307277 ] } },
{ "type": "Feature", "properties": { "fid": 72, "osm_id": "277761742", "name": "Aucayacu", "place": "town", "dem_huanuc": 567.0 }, "geometry": { "type": "Point", "coordinates": [ -76.1159788, -8.9317073 ] } },
{ "type": "Feature", "properties": { "fid": 73, "osm_id": "698513676", "name": "Nueva Honoria", "place": "village", "dem_huanuc": 167.0 }, "geometry": { "type": "Point", "coordinates": [ -74.7089185, -8.7689395 ] } },
{ "type": "Feature", "properties": { "fid": 75, "osm_id": "277755254", "name": "Tingo María", "place": "town", "dem_huanuc": 647.0 }, "geometry": { "type": "Point", "coordinates": [ -76.0003034, -9.2983713 ] } },
{ "type": "Feature", "properties": { "fid": 76, "osm_id": "272401474", "name": "Huánuco", "place": "city", "dem_huanuc": 1899.0 }, "geometry": { "type": "Point", "coordinates": [ -76.2394845, -9.9293255 ] } },
{ "type": "Feature", "properties": { "fid": 79, "osm_id": "1237320303", "name": "Huacaybamba", "place": "region", "dem_huanuc": 3901.0 }, "geometry": { "type": "Point", "coordinates": [ -76.8199087, -8.972827 ] } },
{ "type": "Feature", "properties": { "fid": 81, "osm_id": "1237320266", "name": "Lauricocha", "place": "region", "dem_huanuc": 4404.0 }, "geometry": { "type": "Point", "coordinates": [ -76.7202797, -10.2080956 ] } },
{ "type": "Feature", "properties": { "fid": 82, "osm_id": "1237030128", "name": "Dos de Mayo", "place": "region", "dem_huanuc": 3298.0 }, "geometry": { "type": "Point", "coordinates": [ -76.7242508, -9.6620786 ] } },
{ "type": "Feature", "properties": { "fid": 84, "osm_id": "1237030095", "name": "Marañón", "place": "region", "dem_huanuc": 3916.0 }, "geometry": { "type": "Point", "coordinates": [ -76.666667, -8.75 ] } },
{ "type": "Feature", "properties": { "fid": 85, "osm_id": "1237030080", "name": "Ambo", "place": "region", "dem_huanuc": 2612.0 }, "geometry": { "type": "Point", "coordinates": [ -76.166667, -10.166667 ] } },
{ "type": "Feature", "properties": { "fid": 86, "osm_id": "1237030142", "name": "Pachitea", "place": "region", "dem_huanuc": 3431.0 }, "geometry": { "type": "Point", "coordinates": [ -75.823665, -10.0376048 ] } },
{ "type": "Feature", "properties": { "fid": 87, "osm_id": "1237030141", "name": "Huamalíes", "place": "region", "dem_huanuc": 3403.0 }, "geometry": { "type": "Point", "coordinates": [ -76.5714111, -9.3773876 ] } },
{ "type": "Feature", "properties": { "fid": 88, "osm_id": "1237030130", "name": "Huánuco", "place": "region", "dem_huanuc": 2013.0 }, "geometry": { "type": "Point", "coordinates": [ -76.083333, -9.666667 ] } },
{ "type": "Feature", "properties": { "fid": 91, "osm_id": "1237030076", "name": "Leoncio Prado", "place": "region", "dem_huanuc": 667.0 }, "geometry": { "type": "Point", "coordinates": [ -76.0123596, -9.0961609 ] } },
{ "type": "Feature", "properties": { "fid": 93, "osm_id": "5451497404", "name": "Codo de Pozuzo", "place": "village", "dem_huanuc": 373.0 }, "geometry": { "type": "Point", "coordinates": [ -75.4630387, -9.6697839 ] } },
{ "type": "Feature", "properties": { "fid": 94, "osm_id": "5396433778", "name": "Cayran", "place": "village", "dem_huanuc": 2219.0 }, "geometry": { "type": "Point", "coordinates": [ -76.2840307, -9.9809441 ] } },
{ "type": "Feature", "properties": { "fid": 95, "osm_id": "5340759628", "name": "Chuquis", "place": "village", "dem_huanuc": 3367.0 }, "geometry": { "type": "Point", "coordinates": [ -76.7047049, -9.6773548 ] } },
{ "type": "Feature", "properties": { "fid": 96, "osm_id": "5340753665", "name": "Obas", "place": "village", "dem_huanuc": 3526.0 }, "geometry": { "type": "Point", "coordinates": [ -76.666242, -9.7952931 ] } },
{ "type": "Feature", "properties": { "fid": 97, "osm_id": "5964370793", "name": "Chavin de Pariarca", "place": "village", "dem_huanuc": 3371.0 }, "geometry": { "type": "Point", "coordinates": [ -76.771136, -9.4232295 ] } },
{ "type": "Feature", "properties": { "fid": 98, "osm_id": "5745832565", "name": "Huancapallac", "place": "village", "dem_huanuc": 2404.0 }, "geometry": { "type": "Point", "coordinates": [ -76.3924122, -9.9046268 ] } },
{ "type": "Feature", "properties": { "fid": 99, "osm_id": "5451528515", "name": "Yuyapichis", "place": "hamlet", "dem_huanuc": 206.0 }, "geometry": { "type": "Point", "coordinates": [ -74.9742276, -9.6274545 ] } },
{ "type": "Feature", "properties": { "fid": 100, "osm_id": "5313554287", "name": "Yacus", "place": "village", "dem_huanuc": 3229.0 }, "geometry": { "type": "Point", "coordinates": [ -76.5054256, -9.9858734 ] } },
{ "type": "Feature", "properties": { "fid": 101, "osm_id": "5313541221", "name": "Margos", "place": "village", "dem_huanuc": 3538.0 }, "geometry": { "type": "Point", "coordinates": [ -76.5230933, -10.0054151 ] } },
{ "type": "Feature", "properties": { "fid": 102, "osm_id": "5313531240", "name": "Chaulan", "place": "village", "dem_huanuc": 3559.0 }, "geometry": { "type": "Point", "coordinates": [ -76.4857864, -10.0561713 ] } },
{ "type": "Feature", "properties": { "fid": 103, "osm_id": "5313435012", "name": "Cayna", "place": "village", "dem_huanuc": 3318.0 }, "geometry": { "type": "Point", "coordinates": [ -76.3886207, -10.2723727 ] } },
{ "type": "Feature", "properties": { "fid": 104, "osm_id": "5340727733", "name": "San Cristobal de Jacas Chico", "place": "village", "dem_huanuc": 3799.0 }, "geometry": { "type": "Point", "coordinates": [ -76.5032238, -9.8862764 ] } },
{ "type": "Feature", "properties": { "fid": 105, "osm_id": "5318507138", "name": "Cahuac", "place": "village", "dem_huanuc": 3385.0 }, "geometry": { "type": "Point", "coordinates": [ -76.6306686, -9.852732 ] } },
{ "type": "Feature", "properties": { "fid": 106, "osm_id": "5318507137", "name": "Chacabamba", "place": "village", "dem_huanuc": 3183.0 }, "geometry": { "type": "Point", "coordinates": [ -76.6106808, -9.9004495 ] } },
{ "type": "Feature", "properties": { "fid": 107, "osm_id": "5317149339", "name": "Pampamarca", "place": "village", "dem_huanuc": 3433.0 }, "geometry": { "type": "Point", "coordinates": [ -76.7027503, -9.7054721 ] } },
{ "type": "Feature", "properties": { "fid": 111, "osm_id": "5121185128", "name": "Tambillo", "place": "village", "dem_huanuc": 2493.0 }, "geometry": { "type": "Point", "coordinates": [ -76.0437989, -9.8631451 ] } },
{ "type": "Feature", "properties": { "fid": 112, "osm_id": "5313435007", "name": "Colpas", "place": "village", "dem_huanuc": 2714.0 }, "geometry": { "type": "Point", "coordinates": [ -76.4153945, -10.2681315 ] } },
{ "type": "Feature", "properties": { "fid": 113, "osm_id": "5312383131", "name": "San Francisco de Mosca", "place": "village", "dem_huanuc": 3478.0 }, "geometry": { "type": "Point", "coordinates": [ -76.2919271, -10.34289 ] } },
{ "type": "Feature", "properties": { "fid": 116, "osm_id": "5032785915", "name": "San Pedro de Chonta", "place": "village", "dem_huanuc": 2451.0 }, "geometry": { "type": "Point", "coordinates": [ -76.8748988, -8.6559037 ] } },
{ "type": "Feature", "properties": { "fid": 117, "osm_id": "4934497751", "name": "Huacrachuco", "place": "village", "dem_huanuc": 2896.0 }, "geometry": { "type": "Point", "coordinates": [ -77.1492362, -8.604487 ] } },
{ "type": "Feature", "properties": { "fid": 118, "osm_id": "4704168871", "name": "Quivilla", "place": "village", "dem_huanuc": 2943.0 }, "geometry": { "type": "Point", "coordinates": [ -76.725922, -9.600044 ] } },
{ "type": "Feature", "properties": { "fid": 119, "osm_id": "5121184074", "name": "Chaglla", "place": "town", "dem_huanuc": 3020.0 }, "geometry": { "type": "Point", "coordinates": [ -75.9030616, -9.8449412 ] } },
{ "type": "Feature", "properties": { "fid": 121, "osm_id": "5108489992", "name": "Molino", "place": "village", "dem_huanuc": 2377.0 }, "geometry": { "type": "Point", "coordinates": [ -76.0164374, -9.910194 ] } },
{ "type": "Feature", "properties": { "fid": 122, "osm_id": "5106694556", "name": "Panao", "place": "village", "dem_huanuc": 2494.0 }, "geometry": { "type": "Point", "coordinates": [ -75.9942918, -9.8974849 ] } },
{ "type": "Feature", "properties": { "fid": 123, "osm_id": "7571651899", "name": "Hermilio Valdizán", "place": "village", "dem_huanuc": 1335.0 }, "geometry": { "type": "Point", "coordinates": [ -75.8360924, -9.2055481 ] } },
{ "type": "Feature", "properties": { "fid": 124, "osm_id": "7319714504", "name": "Churubamba", "place": "town", "dem_huanuc": 1927.0 }, "geometry": { "type": "Point", "coordinates": [ -76.133709, -9.8256913 ] } },
{ "type": "Feature", "properties": { "fid": 125, "osm_id": "7319457453", "name": "San Pablo de Pillao", "place": "village", "dem_huanuc": 2796.0 }, "geometry": { "type": "Point", "coordinates": [ -75.9955698, -9.7954978 ] } },
{ "type": "Feature", "properties": { "fid": 126, "osm_id": "7060202998", "name": "Conchamarca", "place": "village", "dem_huanuc": 2163.0 }, "geometry": { "type": "Point", "coordinates": [ -76.2165665, -10.0357616 ] } },
{ "type": "Feature", "properties": { "fid": 127, "osm_id": "6946339434", "name": "", "place": "", "dem_huanuc": 3457.0 }, "geometry": { "type": "Point", "coordinates": [ -76.6278191, -9.8104783 ] } },
{ "type": "Feature", "properties": { "fid": 128, "osm_id": "7571651898", "name": "Castillo Grande", "place": "village", "dem_huanuc": 637.0 }, "geometry": { "type": "Point", "coordinates": [ -76.0087127, -9.2780893 ] } },
{ "type": "Feature", "properties": { "fid": 129, "osm_id": "7571651897", "name": "Pacae", "place": "hamlet", "dem_huanuc": 594.0 }, "geometry": { "type": "Point", "coordinates": [ -76.066128, -9.0242614 ] } },
{ "type": "Feature", "properties": { "fid": 130, "osm_id": "7571649354", "name": "La Morada", "place": "village", "dem_huanuc": 544.0 }, "geometry": { "type": "Point", "coordinates": [ -76.2493712, -8.7947478 ] } },
{ "type": "Feature", "properties": { "fid": 131, "osm_id": "7571564796", "name": "Ripán", "place": "village", "dem_huanuc": 3200.0 }, "geometry": { "type": "Point", "coordinates": [ -76.8030596, -9.8284954 ] } },
{ "type": "Feature", "properties": { "fid": 132, "osm_id": "6168812245", "name": "Yanas", "place": "village", "dem_huanuc": 3458.0 }, "geometry": { "type": "Point", "coordinates": [ -76.750043, -9.7144768 ] } },
{ "type": "Feature", "properties": { "fid": 134, "osm_id": "6162046891", "name": "Jacas Grande", "place": "village", "dem_huanuc": 3607.0 }, "geometry": { "type": "Point", "coordinates": [ -76.7370504, -9.5399548 ] } },
{ "type": "Feature", "properties": { "fid": 136, "osm_id": "6804568121", "name": "Santa Rosa de Alto Yanajanca", "place": "hamlet", "dem_huanuc": 560.0 }, "geometry": { "type": "Point", "coordinates": [ -76.3149324, -8.6532333 ] } },
{ "type": "Feature", "properties": { "fid": 137, "osm_id": "6407745894", "name": "Cayhuayna", "place": "town", "dem_huanuc": 1935.0 }, "geometry": { "type": "Point", "coordinates": [ -76.2467742, -9.9609973 ] } },
{ "type": "Feature", "properties": { "fid": 140, "osm_id": "3764587581", "name": "Punchao", "place": "village", "dem_huanuc": 3538.0 }, "geometry": { "type": "Point", "coordinates": [ -76.8198686, -9.4623743 ] } },
{ "type": "Feature", "properties": { "fid": 141, "osm_id": "3764580221", "name": "Miraflores", "place": "village", "dem_huanuc": 3669.0 }, "geometry": { "type": "Point", "coordinates": [ -76.8186611, -9.4941859 ] } },
{ "type": "Feature", "properties": { "fid": 145, "osm_id": "3584200190", "name": "San Miguel de Huacar", "place": "village", "dem_huanuc": 2119.0 }, "geometry": { "type": "Point", "coordinates": [ -76.2370514, -10.1598127 ] } },
{ "type": "Feature", "properties": { "fid": 146, "osm_id": "3556610289", "name": "Cauri", "place": "town", "dem_huanuc": 3593.0 }, "geometry": { "type": "Point", "coordinates": [ -76.6257665, -10.1422069 ] } },
{ "type": "Feature", "properties": { "fid": 147, "osm_id": "3764560272", "name": "Puños", "place": "village", "dem_huanuc": 3711.0 }, "geometry": { "type": "Point", "coordinates": [ -76.8829418, -9.4997731 ] } },
{ "type": "Feature", "properties": { "fid": 148, "osm_id": "3764532850", "name": "Llata", "place": "town", "dem_huanuc": 3436.0 }, "geometry": { "type": "Point", "coordinates": [ -76.8156098, -9.5499479 ] } },
{ "type": "Feature", "properties": { "fid": 149, "osm_id": "3764451186", "name": "Jesús", "place": "village", "dem_huanuc": 3484.0 }, "geometry": { "type": "Point", "coordinates": [ -76.6315739, -10.0781114 ] } },
{ "type": "Feature", "properties": { "fid": 158, "osm_id": "3122898092", "name": "San Rafael", "place": "village", "dem_huanuc": 2698.0 }, "geometry": { "type": "Point", "coordinates": [ -76.182284, -10.3378964 ] } },
{ "type": "Feature", "properties": { "fid": 160, "osm_id": "3122894170", "name": "Santa María del Valle", "place": "town", "dem_huanuc": 1914.0 }, "geometry": { "type": "Point", "coordinates": [ -76.1699493, -9.8628206 ] } },
{ "type": "Feature", "properties": { "fid": 161, "osm_id": "3122891421", "name": "Acomayo", "place": "town", "dem_huanuc": 2093.0 }, "geometry": { "type": "Point", "coordinates": [ -76.070426, -9.8016378 ] } },
{ "type": "Feature", "properties": { "fid": 162, "osm_id": "4486992751", "name": "La Unión", "place": "town", "dem_huanuc": 3210.0 }, "geometry": { "type": "Point", "coordinates": [ -76.8013469, -9.8284557 ] } }
]
}
